[{"name":"SHD","_type":"DC","_status":"\u0110ang Ho\u1ea1t \u0110\u1ed9ng","_address":"S\u1ed1 163A \u1ea4p Qu\u1ea3ng Ho\u00e0 , X\u00e3 Qu\u1ea3ng Ti\u1ebfn , Huy\u1ec7n Tr\u1ea3ng Bom , T\u1ec9nh \u0110\u1ed3ng Nai","lng":"106.981","lat":"10.9361","_phone":"","_content":"2 CCS2: 120 kW\r\n"},{"name":"PH\u00daC M\u1ef8 GIA","_type":"DC","_status":"\u0110ang Ho\u1ea1t \u0110\u1ed9ng","_address":"39 QL1A , Ph\u01b0\u1eddng Hi\u1ec7p B\u00ecnh Ph\u01b0\u1edbc , Qu\u1eadn Th\u1ee7 \u0110\u1ee9c , TP. H\u1ed3 Ch\u00ed Minh","lng":"106.72","lat":"10.8638","_phone":"0981864447","_content":"2 CCS2: 60kW"},{"name":"MIS","_type":"DC","_status":"\u0110ang Ho\u1ea1t \u0110\u1ed9ng","_address":"332 Nguy\u1ec5n V\u0103n Linh , Ph\u01b0\u1eddng B\u00ecnh Thu\u1eadn , Qu\u1eadn 7 , TP. H\u1ed3 Ch\u00ed Minh","lng":"106.721","lat":"10.7398","_phone":"0981864447","_content":"2CCS: 60 kW "},{"name":"OPPO T\u00c2N PH\u00da","_type":"AC","_status":"\u0110ang Ho\u1ea1t \u0110\u1ed9ng","_address":"295 T\u00e2n K\u1ef3 T\u00e2n Qu\u00fd, L\u00f4 E7 \u0111\u01b0\u1eddng s\u1ed1 3 , Ph\u01b0\u1eddng T\u00e2n S\u01a1n Nh\u00ec , Qu\u1eadn T\u00e2n Ph\u00fa , TP. H\u1ed3 Ch\u00ed Minh","lng":"106.626","lat":"10.8008","_phone":"0981864447","_content":"1 Type 2: 7kW"},{"name":"OPPO B\u00ccNH PH\u01af\u1edaC","_type":"AC","_status":"\u0110ang Ho\u1ea1t \u0110\u1ed9ng","_address":"S\u1ed1 1 Ng\u00f4 Gia T\u1ef1 , Ph\u01b0\u1eddng T\u00e2n Ph\u00fa , Th\u1ecb X\u00e3 \u0110\u1ed3ng Xo\u00e0i , T\u1ec9nh B\u00ecnh Ph\u01b0\u1edbc","lng":"106.884","lat":"11.5354","_phone":"0981864447","_content":"1 Type 2: 7kW"},{"name":"SHD B\u00ccNH THU\u1eacN","_type":"DC","_status":"\u0110ang Ho\u1ea1t \u0110\u1ed9ng","_address":"32 QL1 , Th\u1ecb Tr\u1ea5n T\u00e2n Ngh\u0129a , Huy\u1ec7n H\u00e0m T\u00e2n , T\u1ec9nh B\u00ecnh Thu\u1eadn","lng":"107.733","lat":"10.8266","_phone":"0981864447","_content":"2 CCS2: 60kW"},{"name":"PH\u00daC M\u1ef8 GIA - D2","_type":"DC","_status":"\u0110ang Ho\u1ea1t \u0110\u1ed9ng","_address":"264 Tr\u1ea7n N\u00e3o , Ph\u01b0\u1eddng B\u00ecnh An , Qu\u1eadn 2 , TP. H\u1ed3 Ch\u00ed Minh","lng":"106.73","lat":"10.7883","_phone":"0981864447","_content":"2 CCS2: 60kW"},{"name":"EVP B\u1ea2O L\u1ed8C","_type":"DC","_status":"\u0110ang Ho\u1ea1t \u0110\u1ed9ng","_address":"483-485 Tr\u1ea7n Ph\u00fa , Ph\u01b0\u1eddng L\u1ed9c S\u01a1n , Th\u1ecb X\u00e3 B\u1ea3o L\u1ed9c , T\u1ec9nh L\u00e2m \u0110\u1ed3ng","lng":"107.813","lat":"11.5384","_phone":"0981864447","_content":"2 CCS2: 60kW"},{"name":"EVP M\u1ef8 THO","_type":"AC","_status":"\u0110ang Ho\u1ea1t \u0110\u1ed9ng","_address":"405 \u0110o\u00e0n Th\u1ecb Nghi\u1ec7p , X\u00e3 Trung An , Th\u00e0nh Ph\u1ed1 M\u1ef9 Tho , T\u1ec9nh Ti\u1ec1n Giang","lng":"106.328","lat":"10.3643","_phone":"0981864447","_content":"1 CCS2: 30kW"},{"name":"PH\u00da M\u1ef8 H\u01afNG","_type":"AC","_status":"\u0110ang Ho\u1ea1t \u0110\u1ed9ng","_address":"PPH9+9P8 Parking Outdoors, Crescent Mall, Khu \u0111\u00f4 th\u1ecb Ph\u00fa M\u1ef9 H\u01b0ng , Ph\u01b0\u1eddng T\u00e2n Ph\u00fa , Qu\u1eadn 7 , TP. H\u1ed3 Ch\u00ed Minh","lng":"106.719","lat":"10.7284","_phone":"0981864447","_content":"2 CCS2: 120kW\r\n2Type 2: 22kW"},{"name":"EVP NINH THU\u1eacN","_type":"DC","_status":"\u0110ang Ho\u1ea1t \u0110\u1ed9ng","_address":"948 \u0110\u01b0\u1eddng 21 th\u00e1ng 8 , Ph\u01b0\u1eddng \u0110\u00f4 Vinh , Th\u00e0nh Ph\u1ed1 Phan Rang-Th\u00e1p Ch\u00e0m , T\u1ec9nh Ninh Thu\u1eadn","lng":"108.941","lat":"11.6013","_phone":"0981864447","_content":"2 CCS2: 120kW"},{"name":"MOBICAR","_type":"DC","_status":"\u0110ang Ho\u1ea1t \u0110\u1ed9ng","_address":"109-111 Nguy\u1ec5n V\u0103n Th\u00f4ng , Ph\u01b0\u1eddng Ho\u00e0 Xu\u00e2n , Qu\u1eadn C\u1ea9m L\u1ec7 , TP. \u0110\u00e0 N\u1eb5ng","lng":"108.221","lat":"16.018","_phone":"0981864447","_content":"2 CCS2: 60kW"},{"name":"EVP H\u01afNG TH\u00c1I","_type":"AC","_status":"\u0110ang Ho\u1ea1t \u0110\u1ed9ng","_address":"43 H\u01b0ng Th\u00e1i 2 , Ph\u01b0\u1eddng T\u00e2n Phong , Qu\u1eadn 7 , TP. H\u1ed3 Ch\u00ed Minh","lng":"106.707","lat":"10.7345","_phone":"0981864447","_content":"1 Type 2: 7kW"},{"name":"EVP T\u00c2Y H\u1ed2","_type":"DC","_status":"\u0110ang Ho\u1ea1t \u0110\u1ed9ng","_address":"685A L\u1ea1c Long Qu\u00e2n , Ph\u01b0\u1eddng Ph\u00fa Th\u01b0\u1ee3ng , Qu\u1eadn T\u00e2y H\u1ed3 , TP. H\u00e0 N\u1ed9i","lng":"105.815","lat":"21.077","_phone":"0981864447","_content":"4 CCS2: 60kW"},{"name":"EVP - TOGO","_type":"DC","_status":"\u0110ang Ho\u1ea1t \u0110\u1ed9ng","_address":"  25 \u0110\u01b0\u1eddng Ho\u00e0ng Di\u1ec7u 2, Khu ph\u1ed1 2 , Ph\u01b0\u1eddng Linh Trung , Qu\u1eadn Th\u1ee7 \u0110\u1ee9c , TP. H\u1ed3 Ch\u00ed Minh","lng":"106.762","lat":"10.8603","_phone":"0981864447","_content":"2 CCS2: 40kW"},{"name":"EVP NHA TRANG","_type":"DC","_status":"\u0110ang Ho\u1ea1t \u0110\u1ed9ng","_address":"S\u1ed1 200 \u0111\u01b0\u1eddng 23 Th\u00e1ng 10 , Ph\u01b0\u1eddng Ph\u01b0\u01a1ng S\u00e0i , Th\u00e0nh Ph\u1ed1 Nha Trang , T\u1ec9nh Kh\u00e1nh H\u00f2a","lng":"109.175","lat":"12.2527","_phone":"0981864447","_content":"2 CCS2: 60kW"},{"name":"EVP B\u00ccNH CH\u00c1NH","_type":"DC","_status":"\u0110ang b\u1ea3o tr\u00ec","_address":"B16\/24 QL1A \u1ea5p 2 , X\u00e3 B\u00ecnh Ch\u00e1nh , Huy\u1ec7n B\u00ecnh Ch\u00e1nh , TP. H\u1ed3 Ch\u00ed Minh","lng":"106.563","lat":"10.662","_phone":"0981864447","_content":"1 CCS2: 60kW"}]